[{"id": "Cosorw3lyBJYArC0pUNbqQ", "alias": "cardamom-ann-arbor", "name": "Cardamom", "image_url": "https://s3-media3.fl.yelpcdn.com/bphoto/Yfrd-xnPTBFAA1zg-kIdEA/o.jpg", "is_closed": false, "url": "https://www.yelp.com/biz/cardamom-ann-arbor?adjust_creative=EQNsGkLE-MAAHOOue046pA&utm_campaign=yelp_api_v3&utm_medium=api_v3_business_search&utm_source=EQNsGkLE-MAAHOOue046pA", "review_count": 521, "categories": [{"alias": "indpak", "title": "Indian"}], "rating": 4.0, "coordinates": {"latitude": 42.298577940426, "longitude": -83.7214592574346}, "transactions": ["delivery"], "price": "$$", "location": {"address1": "1739 Plymouth Rd", "address2": null, "address3": "", "city": "Ann Arbor", "zip_code": "48105", "country": "US", "state": "MI", "display_address": ["1739 Plymouth Rd", "Ann Arbor, MI 48105"]}, "phone": "+17346622877", "display_phone": "(734) 662-2877", "distance": 352.95239822468767}, {"id": "8DP6HU2O9u7dIaYuqKGIig", "alias": "burger-1-ann-arbor", "name": "Burger 1", "image_url": "https://s3-media1.fl.yelpcdn.com/bphoto/taFfKlnhr4rMOQDySHJRbw/o.jpg", "is_closed": false, "url": "https://www.yelp.com/biz/burger-1-ann-arbor?adjust_creative=EQNsGkLE-MAAHOOue046pA&utm_campaign=yelp_api_v3&utm_medium=api_v3_business_search&utm_source=EQNsGkLE-MAAHOOue046pA", "review_count": 46, "categories": [{"alias": "burgers", "title": "Burgers"}], "rating": 4.5, "coordinates": {"latitude": 42.298433, "longitude": -83.719662}, "transactions": ["pickup", "delivery"], "location": {"address1": "1771 Plymouth Rd", "address2": "", "address3": null, "city": "Ann Arbor", "zip_code": "48105", "country": "US", "state": "MI", "display_address": ["1771 Plymouth Rd", "Ann Arbor, MI 48105"]}, "phone": "+17342156660", "display_phone": "(734) 215-6660", "distance": 274.74905771157756}, {"id": "pxbyA680Y2Y33YrF1YxqUA", "alias": "seoul-street-ann-arbor", "name": "Seoul Street", "image_url": "https://s3-media2.fl.yelpcdn.com/bphoto/0kI9Qte2509v-X3oUW_Mqg/o.jpg", "is_closed": false, "url": "https://www.yelp.com/biz/seoul-street-ann-arbor?adjust_creative=EQNsGkLE-MAAHOOue046pA&utm_campaign=yelp_api_v3&utm_medium=api_v3_business_search&utm_source=EQNsGkLE-MAAHOOue046pA", "review_count": 395, "categories": [{"alias": "korean", "title": "Korean"}], "rating": 3.5, "coordinates": {"latitude": 42.298542390286, "longitude": -83.71994671592}, "transactions": ["pickup", "delivery"], "price": "$$", "location": {"address1": "1771 Plymouth Rd", "address2": "Ste 101", "address3": "", "city": "Ann Arbor", "zip_code": "48105", "country": "US", "state": "MI", "display_address": ["1771 Plymouth Rd", "Ste 101", "Ann Arbor, MI 48105"]}, "phone": "+17347190085", "display_phone": "(734) 719-0085", "distance": 275.12005554063995}, {"id": "nRrzWMP2u7qz1UfOBYctIA", "alias": "syrian-cuisine-and-exotic-bakeries-ann-arbor", "name": "Syrian Cuisine & Exotic Bakeries", "image_url": "https://s3-media1.fl.yelpcdn.com/bphoto/XkPi-HiEtt0pY_urt-LT0w/o.jpg", "is_closed": false, "url": "https://www.yelp.com/biz/syrian-cuisine-and-exotic-bakeries-ann-arbor?adjust_creative=EQNsGkLE-MAAHOOue046pA&utm_campaign=yelp_api_v3&utm_medium=api_v3_business_search&utm_source=EQNsGkLE-MAAHOOue046pA", "review_count": 139, "categories": [{"alias": "mideastern", "title": "Middle Eastern"}, {"alias": "bakeries", "title": "Bakeries"}, {"alias": "syrian", "title": "Syrian"}], "rating": 4.5, "coordinates": {"latitude": 42.298849718433, "longitude": -83.721077020512}, "transactions": ["pickup", "delivery"], "price": "$", "location": {"address1": "1721 Plymouth Rd", "address2": "", "address3": "", "city": "Ann Arbor", "zip_code": "48105", "country": "US", "state": "MI", "display_address": ["1721 Plymouth Rd", "Ann Arbor, MI 48105"]}, "phone": "+17346654430", "display_phone": "(734) 665-4430", "distance": 309.4051638034451}, {"id": "iTz5V5ALIIM1d8qdy7xG6w", "alias": "saica-ann-arbor", "name": "Saica", "image_url": "https://s3-media3.fl.yelpcdn.com/bphoto/BE2DNIKq6wwkYzdTdUX4Vg/o.jpg", "is_closed": false, "url": "https://www.yelp.com/biz/saica-ann-arbor?adjust_creative=EQNsGkLE-MAAHOOue046pA&utm_campaign=yelp_api_v3&utm_medium=api_v3_business_search&utm_source=EQNsGkLE-MAAHOOue046pA", "review_count": 110, "categories": [{"alias": "japanese", "title": "Japanese"}, {"alias": "sushi", "title": "Sushi Bars"}, {"alias": "korean", "title": "Korean"}], "rating": 3.5, "coordinates": {"latitude": 42.298769692855, "longitude": -83.721569373115}, "transactions": ["pickup", "delivery"], "price": "$$", "location": {"address1": "1733 Plymouth Rd", "address2": "", "address3": "", "city": "Ann Arbor", "zip_code": "48105", "country": "US", "state": "MI", "display_address": ["1733 Plymouth Rd", "Ann Arbor, MI 48105"]}, "phone": "+17347691212", "display_phone": "(734) 769-1212", "distance": 346.47440576351033}, {"id": "IJYlETrRrqlNqlMC7HC7Fw", "alias": "ayses-turkish-cafe-ann-arbor", "name": "Ayse's Turkish Cafe", "image_url": "https://s3-media4.fl.yelpcdn.com/bphoto/2M6g3m2fcSN01XKRr3Ihxg/o.jpg", "is_closed": false, "url": "https://www.yelp.com/biz/ayses-turkish-cafe-ann-arbor?adjust_creative=EQNsGkLE-MAAHOOue046pA&utm_campaign=yelp_api_v3&utm_medium=api_v3_business_search&utm_source=EQNsGkLE-MAAHOOue046pA", "review_count": 74, "categories": [{"alias": "turkish", "title": "Turkish"}, {"alias": "gluten_free", "title": "Gluten-Free"}], "rating": 4.0, "coordinates": {"latitude": 42.2989949328215, "longitude": -83.7216339900569}, "transactions": ["delivery"], "price": "$$", "location": {"address1": "1703 Plymouth Rd", "address2": "", "address3": "", "city": "Ann Arbor", "zip_code": "48105", "country": "US", "state": "MI", "display_address": ["1703 Plymouth Rd", "Ann Arbor, MI 48105"]}, "phone": "+17346621711", "display_phone": "(734) 662-1711", "distance": 336.27137316511687}, {"id": "m0aRWtTx26AwyTFwgpXA7Q", "alias": "no-thai-ann-arbor-3", "name": "No Thai!", "image_url": "https://s3-media1.fl.yelpcdn.com/bphoto/WyArSFQ5QK1L9s5zNnYwYw/o.jpg", "is_closed": false, "url": "https://www.yelp.com/biz/no-thai-ann-arbor-3?adjust_creative=EQNsGkLE-MAAHOOue046pA&utm_campaign=yelp_api_v3&utm_medium=api_v3_business_search&utm_source=EQNsGkLE-MAAHOOue046pA", "review_count": 145, "categories": [{"alias": "thai", "title": "Thai"}], "rating": 3.0, "coordinates": {"latitude": 42.298387981115, "longitude": -83.721441063203}, "transactions": ["delivery"], "price": "$", "location": {"address1": "1745 Plymouth Rd", "address2": "", "address3": "", "city": "Ann Arbor", "zip_code": "48105", "country": "US", "state": "MI", "display_address": ["1745 Plymouth Rd", "Ann Arbor, MI 48105"]}, "phone": "+17346638080", "display_phone": "(734) 663-8080", "distance": 366.0907864362785}, {"id": "Y1UGTOC2xpNWKKMbjw2lMg", "alias": "nagomi-sushi-and-noodle-ann-arbor", "name": "Nagomi Sushi & Noodle", "image_url": "https://s3-media2.fl.yelpcdn.com/bphoto/F1xudUL0IbW1RxrS1EjcSQ/o.jpg", "is_closed": false, "url": "https://www.yelp.com/biz/nagomi-sushi-and-noodle-ann-arbor?adjust_creative=EQNsGkLE-MAAHOOue046pA&utm_campaign=yelp_api_v3&utm_medium=api_v3_business_search&utm_source=EQNsGkLE-MAAHOOue046pA", "review_count": 207, "categories": [{"alias": "sushi", "title": "Sushi Bars"}, {"alias": "noodles", "title": "Noodles"}], "rating": 3.5, "coordinates": {"latitude": 42.298002331671, "longitude": -83.722936532715}, "transactions": ["pickup", "delivery"], "price": "$$", "location": {"address1": "1754 Plymouth Rd", "address2": "", "address3": "", "city": "Ann Arbor", "zip_code": "48105", "country": "US", "state": "MI", "display_address": ["1754 Plymouth Rd", "Ann Arbor, MI 48105"]}, "phone": "+17347615800", "display_phone": "(734) 761-5800", "distance": 487.625693378052}, {"id": "Yghp6qTirK4CQZWn62iM4A", "alias": "lucky-kitchen-ann-arbor-5", "name": "Lucky Kitchen", "image_url": "https://s3-media4.fl.yelpcdn.com/bphoto/-EIvYAFwXUc69Rv1IzbDuA/o.jpg", "is_closed": false, "url": "https://www.yelp.com/biz/lucky-kitchen-ann-arbor-5?adjust_creative=EQNsGkLE-MAAHOOue046pA&utm_campaign=yelp_api_v3&utm_medium=api_v3_business_search&utm_source=EQNsGkLE-MAAHOOue046pA", "review_count": 112, "categories": [{"alias": "chinese", "title": "Chinese"}, {"alias": "gluten_free", "title": "Gluten-Free"}, {"alias": "asianfusion", "title": "Asian Fusion"}], "rating": 2.5, "coordinates": {"latitude": 42.2983826188459, "longitude": -83.721200420523}, "transactions": ["pickup", "delivery"], "price": "$", "location": {"address1": "1753 Plymouth Rd", "address2": "", "address3": "", "city": "Ann Arbor", "zip_code": "48105", "country": "US", "state": "MI", "display_address": ["1753 Plymouth Rd", "Ann Arbor, MI 48105"]}, "phone": "+17347479968", "display_phone": "(734) 747-9968", "distance": 352.47962242791766}, {"id": "GcBr0xZVf-c-m3WlNB3cEQ", "alias": "panera-bread-ann-arbor-2", "name": "Panera Bread", "image_url": "https://s3-media1.fl.yelpcdn.com/bphoto/NHQ048MvhHUC8ThpzKUhmg/o.jpg", "is_closed": false, "url": "https://www.yelp.com/biz/panera-bread-ann-arbor-2?adjust_creative=EQNsGkLE-MAAHOOue046pA&utm_campaign=yelp_api_v3&utm_medium=api_v3_business_search&utm_source=EQNsGkLE-MAAHOOue046pA", "review_count": 48, "categories": [{"alias": "sandwiches", "title": "Sandwiches"}, {"alias": "salad", "title": "Salad"}, {"alias": "soup", "title": "Soup"}], "rating": 2.5, "coordinates": {"latitude": 42.2983989, "longitude": -83.7195167}, "transactions": ["pickup", "delivery"], "price": "$", "location": {"address1": "1773 Plymouth Road", "address2": null, "address3": null, "city": "Ann Arbor", "zip_code": "48105", "country": "US", "state": "MI", "display_address": ["1773 Plymouth Road", "Ann Arbor, MI 48105"]}, "phone": "+17343326279", "display_phone": "(734) 332-6279", "distance": 273.3081311257351}, {"id": "SPCYh2_JYtJkReVJbMp2lA", "alias": "marcos-pizza-ann-arbor-4", "name": "Marco's Pizza", "image_url": "https://s3-media1.fl.yelpcdn.com/bphoto/_7_FNe_Rs8rr5h0KB0ZwUA/o.jpg", "is_closed": false, "url": "https://www.yelp.com/biz/marcos-pizza-ann-arbor-4?adjust_creative=EQNsGkLE-MAAHOOue046pA&utm_campaign=yelp_api_v3&utm_medium=api_v3_business_search&utm_source=EQNsGkLE-MAAHOOue046pA", "review_count": 21, "categories": [{"alias": "pizza", "title": "Pizza"}, {"alias": "desserts", "title": "Desserts"}, {"alias": "salad", "title": "Salad"}], "rating": 4.0, "coordinates": {"latitude": 42.29808, "longitude": -83.72299}, "transactions": ["pickup", "delivery"], "price": "$", "location": {"address1": "1752 Plymouth Rd", "address2": "", "address3": "", "city": "Ann Arbor", "zip_code": "48105", "country": "US", "state": "MI", "display_address": ["1752 Plymouth Rd", "Ann Arbor, MI 48105"]}, "phone": "+17349982600", "display_phone": "(734) 998-2600", "distance": 485.97444400519703}, {"id": "bUGQi68-IU9vqZXaZsHUqw", "alias": "jets-pizza-ann-arbor-2", "name": "Jet's Pizza", "image_url": "https://s3-media1.fl.yelpcdn.com/bphoto/clR5p_Mf_I-esB86c3rraQ/o.jpg", "is_closed": false, "url": "https://www.yelp.com/biz/jets-pizza-ann-arbor-2?adjust_creative=EQNsGkLE-MAAHOOue046pA&utm_campaign=yelp_api_v3&utm_medium=api_v3_business_search&utm_source=EQNsGkLE-MAAHOOue046pA", "review_count": 42, "categories": [{"alias": "pizza", "title": "Pizza"}], "rating": 2.5, "coordinates": {"latitude": 42.29833660429964, "longitude": -83.72141868396497}, "transactions": ["pickup", "delivery"], "price": "$$", "location": {"address1": "1749 Plymouth Rd", "address2": "", "address3": "", "city": "Ann Arbor", "zip_code": "48105", "country": "US", "state": "MI", "display_address": ["1749 Plymouth Rd", "Ann Arbor, MI 48105"]}, "phone": "+17343321300", "display_phone": "(734) 332-1300", "distance": 368.74779315238203}, {"id": "gJrzL0YL3SLxM3rumOTSrg", "alias": "zoup-ann-arbor", "name": "Zoup!", "image_url": "https://s3-media2.fl.yelpcdn.com/bphoto/HHWRqSFmCWXMJdk6VnjfYg/o.jpg", "is_closed": false, "url": "https://www.yelp.com/biz/zoup-ann-arbor?adjust_creative=EQNsGkLE-MAAHOOue046pA&utm_campaign=yelp_api_v3&utm_medium=api_v3_business_search&utm_source=EQNsGkLE-MAAHOOue046pA", "review_count": 59, "categories": [{"alias": "sandwiches", "title": "Sandwiches"}, {"alias": "soup", "title": "Soup"}, {"alias": "salad", "title": "Salad"}], "rating": 3.0, "coordinates": {"latitude": 42.3038536, "longitude": -83.7093498}, "transactions": ["pickup", "delivery"], "price": "$", "location": {"address1": "2619 Plymouth Rd", "address2": "", "address3": "", "city": "Ann Arbor", "zip_code": "48105", "country": "US", "state": "MI", "display_address": ["2619 Plymouth Rd", "Ann Arbor, MI 48105"]}, "phone": "+17349979070", "display_phone": "(734) 997-9070", "distance": 811.442886927605}, {"id": "3MUf6tKBab7cl7zyuxRjqw", "alias": "jimmy-johns-ann-arbor-5", "name": "Jimmy John's", "image_url": "https://s3-media1.fl.yelpcdn.com/bphoto/bnpMuxrU-NTH24-x0AOQMQ/o.jpg", "is_closed": false, "url": "https://www.yelp.com/biz/jimmy-johns-ann-arbor-5?adjust_creative=EQNsGkLE-MAAHOOue046pA&utm_campaign=yelp_api_v3&utm_medium=api_v3_business_search&utm_source=EQNsGkLE-MAAHOOue046pA", "review_count": 28, "categories": [{"alias": "sandwiches", "title": "Sandwiches"}, {"alias": "delis", "title": "Delis"}, {"alias": "hotdogs", "title": "Fast Food"}], "rating": 3.0, "coordinates": {"latitude": 42.303657, "longitude": -83.709412}, "transactions": [], "price": "$", "location": {"address1": "2615 Plymouth Rd", "address2": null, "address3": null, "city": "Ann Arbor", "zip_code": "48105", "country": "US", "state": "MI", "display_address": ["2615 Plymouth Rd", "Ann Arbor, MI 48105"]}, "phone": "+17349302000", "display_phone": "(734) 930-2000", "distance": 797.4760508261688}, {"id": "a1S5zcbrp5sWz3aJdoK54w", "alias": "dominos-pizza-ann-arbor-9", "name": "Domino's Pizza", "image_url": "https://s3-media2.fl.yelpcdn.com/bphoto/OpW9GQaXS_XzG89FdcsfBg/o.jpg", "is_closed": false, "url": "https://www.yelp.com/biz/dominos-pizza-ann-arbor-9?adjust_creative=EQNsGkLE-MAAHOOue046pA&utm_campaign=yelp_api_v3&utm_medium=api_v3_business_search&utm_source=EQNsGkLE-MAAHOOue046pA", "review_count": 42, "categories": [{"alias": "pizza", "title": "Pizza"}], "rating": 2.5, "coordinates": {"latitude": 42.3029138275637, "longitude": -83.7094062490622}, "transactions": ["pickup", "delivery"], "price": "$", "location": {"address1": "2601 Plymouth Rd", "address2": "", "address3": "", "city": "Ann Arbor", "zip_code": "48105", "country": "US", "state": "MI", "display_address": ["2601 Plymouth Rd", "Ann Arbor, MI 48105"]}, "phone": "+17346633333", "display_phone": "(734) 663-3333", "distance": 767.1167520661079}]